,site_id,NO2,NO2_CPCB,site_name,lat,lon,NO2_CPCB_count,NO2_DA,year,NO2_count,NO2_DA_before,timestamp_count,percentage_change,compliance_change_non_to_compl,compliance_change_compl_to_non,compliance_change,pollutant_before_cleaning_mass_conc,pollutant_after_cleaning
1,site_168,9.603594168056146,67.25777180736986,Bandra_Mumbai_MPCB,19.0627,72.84614,5129.0,14.597563752276868,2020,25789.0,73.3976548269581,35136.0,600.3395877668937,False,True,True,9.603594168056146,67.25777180736986
21,site_5104,37.15163615686562,68.48748296713273,Kurla_Mumbai_MPCB,19.0863,72.8888,22028.0,62.693533697632056,2020,27259.0,77.58139799635701,35136.0,84.34580560047891,False,True,True,37.15163615686562,68.48748296713273
26,site_5106,26.576173650294454,47.17473278155941,Vile_Parle_West_Mumbai_MPCB,19.10861,72.83622,25856.0,73.58834244080145,2020,32433.0,92.30703551912568,35136.0,77.50761792240448,False,True,True,26.576173650294454,47.17473278155941
31,site_5107,28.11125146062164,52.24008357899694,Chhatrapati_Shivaji_Intl._Airport_(T2)_Mumbai_MPCB,19.10078,72.87462,21235.0,60.43658925318761,2020,25674.0,73.07035519125684,35136.0,85.83336160673979,False,True,True,28.11125146062164,52.24008357899694
56,site_5119,39.67171305500332,70.02748320216638,Sion_Mumbai_MPCB,19.047,72.8746,23634.0,67.26434426229508,2020,30180.0,85.8948087431694,35136.0,76.51741709533928,False,True,True,39.67171305500332,70.02748320216638
66,site_5392,50.06212678494158,72.6348475708502,Bandra_Kurla_Complex_Mumbai_IITM,19.053536,72.84643,3952.0,11.247723132969034,2020,4622.0,13.154599271402551,35136.0,45.08941636234753,False,False,False,50.06212678494158,72.6348475708502
91,site_5399,35.88986236355007,52.06487939287799,Chakala-Andheri_East_Mumbai_IITM,19.11074,72.86084,1713.0,4.875341530054645,2020,2107.0,5.996698542805101,35136.0,45.06848442460272,False,True,True,35.88986236355007,52.06487939287799
